{
    "code": 200,
    "result": [
        {
            "latitude": "12.974002",
            "name": "Yj",
            "userRole": "TRAINER",
            "userId": "840282c7-4246-44db-a1f6-d753c1913547",
            "programId": 27,
            "longitude": "77.613458"
        },
        {
            "latitude": "23.7023775",
            "name": "Patel mukeshbhai",
            "userRole": "TRAINEE",
            "userId": "912a7c4d-2482-4a7a-a506-3cd7c3d8b886",
            "programId": 27,
            "longitude": "72.5425606"
        },
        {
            "latitude": "17.1017311",
            "name": "Shiva",
            "userRole": "TRAINEE",
            "userId": "c74c08a8-921e-433d-a1fd-917e9b1c4c34",
            "programId": 27,
            "longitude": "79.2463456"
        },
        {
            "latitude": "10.3247315",
            "name": "Yalinikulendhran",
            "userRole": "TRAINEE",
            "userId": "ad439a79-65f3-4629-9523-27ae55fae348",
            "programId": 27,
            "longitude": "78.9265878"
        },
        {
            "latitude": "23.5968857",
            "name": "Kanaiyalal Vankar",
            "userRole": "TRAINEE",
            "userId": "c7407356-dbe6-4e58-aada-90773bb4201c",
            "programId": 27,
            "longitude": "72.9630378"
        },
        {
            "latitude": "23.409592",
            "name": "Ashish Mehta",
            "userRole": "TRAINEE",
            "userId": "eafa5769-776e-421f-bdce-03326a065f7e",
            "programId": 27,
            "longitude": "70.81348179999999"
        },
        {
            "latitude": "21.3462194",
            "name": "Ashutosh",
            "userRole": "TRAINEE",
            "userId": "9b7cd3e3-5fdd-423f-8fb1-07790ab820fa",
            "programId": 27,
            "longitude": "83.6293407"
        },
        {
            "latitude": "23.7023775",
            "name": "Shaileshbhai",
            "userRole": "TRAINEE",
            "userId": "90df11b4-79fd-41c0-8d83-b3ba0d76bbde",
            "programId": 27,
            "longitude": 72.54271293937725
        },
        {
            "latitude": "22.8842835",
            "name": "Meena parmar",
            "userRole": "TRAINEE",
            "userId": "2fce8054-838b-4511-9de4-85c828516405",
            "programId": 27,
            "longitude": "69.5192718"
        },
        {
            "latitude": "21.9681716",
            "name": "Zala Anilsinh",
            "userRole": "TRAINEE",
            "userId": "98427f84-0e6b-4c1e-9bc7-580049d9e3ad",
            "programId": 27,
            "longitude": "71.57536259999999"
        },
        {
            "latitude": "23.2995554",
            "name": "Raj bharatbhai pandya",
            "userRole": "TRAINEE",
            "userId": "a53273d5-0418-4e44-9160-d2747f67d825",
            "programId": 27,
            "longitude": "70.4003217"
        },
        {
            "latitude": "10.5617297",
            "name": "Manu Panjikaran",
            "userRole": "TRAINEE",
            "userId": "de5fa352-ea4d-4bb8-8d72-9ad3dce253f5",
            "programId": 27,
            "longitude": "76.8320351"
        },
        {
            "latitude": "19.8163698",
            "name": "Kishan ",
            "userRole": "TRAINER",
            "userId": "db52891b-977c-429d-ad2c-9258b81a7ba4",
            "programId": 27,
            "longitude": "73.9628086"
        },
        {
            "latitude": "23.4784328",
            "name": "Ravi somani",
            "userRole": "TRAINEE",
            "userId": "5bfd7f81-ec88-422a-9f71-fbc75f3ace63",
            "programId": 27,
            "longitude": "70.77491549999999"
        },
        {
            "latitude": "10.3832867",
            "name": "Prasanth",
            "userRole": "TRAINEE",
            "userId": "94047112-9581-4ea9-a7b2-5532bd496584",
            "programId": 27,
            "longitude": "78.800129"
        },
        {
            "latitude": "21.3595721",
            "name": "Tejashree Sadhana Balaso",
            "userRole": "TRAINEE",
            "userId": "a7c83a7f-e4bd-4fa8-9c2a-914c38352ec0",
            "programId": 27,
            "longitude": "74.2573982"
        },
        {
            "latitude": "23.702044",
            "name": "Goswami nisha narendrabharathi",
            "userRole": "TRAINEE",
            "userId": "3c872b16-ee10-4de9-a28b-992b5a11ce01",
            "programId": 27,
            "longitude": "72.5388881"
        },
        {
            "latitude": "22.9024616",
            "name": "Sahdev",
            "userRole": "TRAINER",
            "userId": "85bce1bf-2a8b-4862-8a13-80758d68c6e0",
            "programId": 27,
            "longitude": "69.4724952"
        },
        {
            "latitude": "22.5339364",
            "name": "Subrata Singh",
            "userRole": "TRAINEE",
            "userId": "d3988f95-3458-49bf-bc97-a81ab0108569",
            "programId": 27,
            "longitude": "72.9868283"
        },
        {
            "latitude": "26.8822609",
            "name": "Paramita Roy",
            "userRole": "TRAINEE",
            "userId": "321375b5-ae91-4d01-8378-5eb311e2ff02",
            "programId": 27,
            "longitude": "88.79837119999999"
        },
        {
            "latitude": "20.2568482",
            "name": "Nirmal Chandra Mohanty ",
            "userRole": "TRAINEE",
            "userId": "44a1ef88-ba82-4c2e-bf2d-67d6f7b9e350",
            "programId": 27,
            "longitude": "85.82827429999999"
        },
        {
            "latitude": "23.9782445",
            "name": "Jiten Malpahariya",
            "userRole": "TRAINEE",
            "userId": "267a7622-9c4b-4f7b-be36-c44170b402e7",
            "programId": 27,
            "longitude": "87.25312629999999"
        },
        {
            "latitude": "22.9405451",
            "name": "Savan",
            "userRole": "TRAINEE",
            "userId": "c9e258a0-5300-4461-b505-2ac5ff98636e",
            "programId": 27,
            "longitude": "69.512717"
        },
        {
            "latitude": "16.9025636",
            "name": "Farida supervisor",
            "userRole": "TRAINEE",
            "userId": "6ded97db-dc70-49eb-8b39-bd50173538d6",
            "programId": 27,
            "longitude": "79.6110804"
        },
        {
            "latitude": "23.7016303",
            "name": "Alpesh Patel ",
            "userRole": "TRAINER",
            "userId": "8866902d-32f0-4d36-a6d3-eeef2072405c",
            "programId": 27,
            "longitude": "72.53949209999999"
        },
        {
            "latitude": "27.0593562",
            "name": "Pritam ghosh",
            "userRole": "TRAINEE",
            "userId": "941579b3-5b8d-43eb-88b1-80e87fa6a840",
            "programId": 27,
            "longitude": "88.46945350000001"
        },
        {
            "latitude": "13.5560496",
            "name": "Rani Reddy",
            "userRole": "TRAINEE",
            "userId": "6b1255b3-c3cf-48bd-aa73-b0dcffaf6951",
            "programId": 27,
            "longitude": "78.50100069999999"
        },
        {
            "latitude": "22.8841134",
            "name": "Hiralal miting",
            "userRole": "TRAINEE",
            "userId": "3b26d9ed-f52c-4a3d-960e-963c1225b9cc",
            "programId": 27,
            "longitude": "69.355231"
        },
        {
            "latitude": "23.6649433",
            "name": "Desai Haresh kumar Ramesh Bhai ",
            "userRole": "TRAINEE",
            "userId": "98d93e00-4864-48aa-9f6c-06068ffc4074",
            "programId": 27,
            "longitude": "72.6830913"
        },
        {
            "latitude": "16.7124153",
            "name": "T Radha KMpally ",
            "userRole": "TRAINEE",
            "userId": "384f86d2-2fa2-4b51-8527-506c4e191ee8",
            "programId": 27,
            "longitude": "78.9671806"
        },
        {
            "latitude": "16.8817659",
            "name": "Shaik Saida begum",
            "userRole": "TRAINEE",
            "userId": "c64dca7e-f9df-453c-a6f1-7a57c142b6ab",
            "programId": 27,
            "longitude": "79.572157"
        },
        {
            "latitude": "10.3239989",
            "name": "Chitra",
            "userRole": "TRAINEE",
            "userId": "7b00fe4a-0677-4735-8674-870d3b9bfe95",
            "programId": 27,
            "longitude": "78.92599550000001"
        },
        {
            "latitude": "23.4316846",
            "name": "Vaghela Ramesh B",
            "userRole": "TRAINEE",
            "userId": "c919ec69-7f36-4a98-a6e7-a7733764d137",
            "programId": 27,
            "longitude": "70.6395247"
        },
        {
            "latitude": "25.9655284",
            "name": "Jitendra Kumar ",
            "userRole": "TRAINEE",
            "userId": "9c782be5-e423-49f9-8b28-613ccc87fc3a",
            "programId": 27,
            "longitude": "85.5609008"
        },
        {
            "latitude": "12.9715987",
            "name": "Izra Nawas",
            "userRole": "TRAINEE",
            "userId": "9ca87890-0726-4909-9ebd-92fab6ce4a20",
            "programId": 27,
            "longitude": "77.5945627"
        },
        {
            "latitude": "13.4354985",
            "name": "Harish kumar",
            "userRole": "TRAINEE",
            "userId": "5bdb6895-9c24-4df3-afc3-bb1924171fea",
            "programId": 27,
            "longitude": "77.7315344"
        },
        {
            "latitude": "17.05069",
            "name": "Adavath parvathi",
            "userRole": "TRAINEE",
            "userId": "242a3167-2079-4477-a496-a5068c491541",
            "programId": 27,
            "longitude": "79.2675130000001"
        },
        {
            "latitude": "23.7757259",
            "name": "Ranchhodji Ajamelji Thakor",
            "userRole": "TRAINEE",
            "userId": "024316cc-7fe7-4f44-9ea8-c925726ed1bf",
            "programId": 27,
            "longitude": "72.6165643"
        },
        {
            "latitude": "23.349547",
            "name": "Nrusingh Charan Sutar",
            "userRole": "TRAINEE",
            "userId": "5a7898e7-5779-4b5b-b345-0e67cd8ea9c2",
            "programId": 27,
            "longitude": "85.335785"
        },
        {
            "latitude": "23.029761",
            "name": "Gordhan Kantariya",
            "userRole": "TRAINEE",
            "userId": "5db4d93e-0440-4889-aede-7c3540cc5831",
            "programId": 27,
            "longitude": "72.473677"
        },
        {
            "latitude": "16.7084354",
            "name": "Kathi Vijayalaxmi",
            "userRole": "TRAINEE",
            "userId": "b47e89bd-a4e4-4809-972e-db2e7eae8843",
            "programId": 27,
            "longitude": "79.4198629"
        },
        {
            "latitude": "23.5078177",
            "name": "Raval Alpeshkumar laxmanbhai",
            "userRole": "TRAINEE",
            "userId": "b59d4a46-f33b-4b08-ac4d-374948839c8c",
            "programId": 27,
            "longitude": "72.63877"
        },
        {
            "latitude": "10.3769131",
            "name": "Elavazhagan",
            "userRole": "TRAINEE",
            "userId": "cbec1c8c-7914-43b5-b7f6-a3e131c9fdff",
            "programId": 27,
            "longitude": "79.098396"
        },
        {
            "latitude": "16.8722499",
            "name": "MANJULA",
            "userRole": "TRAINEE",
            "userId": "4752ee9a-d3d1-496b-b101-7d5dbd3194d6",
            "programId": 27,
            "longitude": "79.0714913"
        },
        {
            "latitude": "22.8975064",
            "name": "Bhati savan",
            "userRole": "TRAINEE",
            "userId": "a1261bb9-8ef1-4b6b-94b6-1ae65102057f",
            "programId": 27,
            "longitude": "69.4633706"
        },
        {
            "latitude": "23.7023775",
            "name": "Rathod Nisha keshrsinh",
            "userRole": "TRAINEE",
            "userId": "fdb8b1d1-3822-42e2-8e57-7a95cb7297ee",
            "programId": 27,
            "longitude": 72.54278548193787
        },
        {
            "latitude": "23.1293535",
            "name": "Mritunjay Kumar Mahato",
            "userRole": "TRAINEE",
            "userId": "53ada3ff-a458-444f-8186-7be0fd8399e8",
            "programId": 27,
            "longitude": "84.241573"
        },
        {
            "latitude": "23.4853879",
            "name": "Rathod Ajaysinh Fatesinh ",
            "userRole": "TRAINEE",
            "userId": "2390c7a6-6347-41ef-be70-2eca8bd7e737",
            "programId": 27,
            "longitude": "72.7451817"
        },
        {
            "latitude": "22.8871866",
            "name": "Murji Khimji Maheshwari",
            "userRole": "TRAINEE",
            "userId": "01f36c57-cf2f-42da-af8f-49576b08677c",
            "programId": 27,
            "longitude": "69.5162548"
        },
        {
            "latitude": "23.2250473",
            "name": "Jayantilal Gorsiya",
            "userRole": "TRAINEE",
            "userId": "4c86587a-893e-4d75-9881-965d8fdab183",
            "programId": 27,
            "longitude": "69.6488554"
        },
        {
            "latitude": "19.914904",
            "name": "Sudam Bodake",
            "userRole": "TRAINEE",
            "userId": "93815ba1-bfba-437e-aee3-bf517173900e",
            "programId": 27,
            "longitude": "73.9338259"
        },
        {
            "latitude": "23.4349854",
            "name": "Bhavnaben satishbhai oad",
            "userRole": "TRAINEE",
            "userId": "c6d045d9-99bc-4758-a443-a224f20d2784",
            "programId": 27,
            "longitude": "72.65650839999999"
        },
        {
            "latitude": "14.1961485",
            "name": "Narasimha Rao S",
            "userRole": "TRAINEE",
            "userId": "4a91748d-c3d6-4cc2-8487-c54728c64902",
            "programId": 27,
            "longitude": "79.1592625"
        },
        {
            "latitude": "23.5968857",
            "name": "Rajput swarupsinh",
            "userRole": "TRAINEE",
            "userId": "9afe6d06-fc0c-42c3-983e-e64a33935587",
            "programId": 27,
            "longitude": 72.96319102237936
        },
        {
            "latitude": "16.8688457",
            "name": "K Nagamani Damarcherla project",
            "userRole": "TRAINEE",
            "userId": "3142c5e5-e6b4-467c-8bc7-37c4d62b0601",
            "programId": 27,
            "longitude": "79.5643679"
        },
        {
            "latitude": "20.2425745",
            "name": "Sankarsan Behera",
            "userRole": "TRAINEE",
            "userId": "8ed9ff54-4090-4a47-9bfb-443b3dafc139",
            "programId": 27,
            "longitude": "85.8895144"
        },
        {
            "latitude": "23.7023775",
            "name": "Kanubhai patel",
            "userRole": "TRAINEE",
            "userId": "6dbddad7-a9ef-472b-8e22-5652e4533b35",
            "programId": 27,
            "longitude": 72.54285802449846
        },
        {
            "latitude": "23.704764",
            "name": "Rajendra patel ",
            "userRole": "TRAINEE",
            "userId": "6afb2b3b-3e1c-4e13-9bd9-b1e2e77810c9",
            "programId": 27,
            "longitude": "72.54030890000001"
        },
        {
            "latitude": "22.5833887",
            "name": "Sheetal Joshi",
            "userRole": "TRAINER",
            "userId": "9bb07b4d-1f9a-46ff-abff-29ec483b7763",
            "programId": 27,
            "longitude": "88.4078253"
        },
        {
            "latitude": "12.8230756",
            "name": "Abdul Latheef ",
            "userRole": "TRAINER",
            "userId": "2e400362-1635-47e4-99c8-72b00dd38b19",
            "programId": 27,
            "longitude": "75.19913129999999"
        },
        {
            "latitude": "12.9910529",
            "name": "Uzra Sultana",
            "userRole": "TRAINER",
            "userId": "ff97766a-e506-49df-9522-8efa994ff324",
            "programId": 27,
            "longitude": "77.61004659999999"
        },
        {
            "latitude": "17.3933786",
            "name": "Sreekanth",
            "userRole": "TRAINER",
            "userId": "b912e843-b03e-4f84-8133-82016c8dd2a8",
            "programId": 27,
            "longitude": "78.61436719999999"
        },
        {
            "latitude": "19.8103583",
            "name": "Pritam Lonare",
            "userRole": "TRAINER",
            "userId": "88acf595-35dd-4ee8-87aa-924166be5859",
            "programId": 27,
            "longitude": "73.9447994"
        },
        {
            "latitude": "24.7057346",
            "name": "Subhabrata Das",
            "userRole": "TRAINEE",
            "userId": "c7aaf34b-f478-4809-94b2-38e316f25acc",
            "programId": 27,
            "longitude": "87.70494529999999"
        },
        {
            "latitude": "26.8816342",
            "name": "Subhash Ghosh",
            "userRole": "TRAINEE",
            "userId": "025233ee-51b5-443f-af66-4aca4590614d",
            "programId": 27,
            "longitude": "88.7984924"
        },
        {
            "latitude": "10.3990274",
            "name": "Deepa",
            "userRole": "TRAINEE",
            "userId": "7d16789c-684c-442c-b2a1-487b76c24875",
            "programId": 27,
            "longitude": "79.0401363"
        },
        {
            "latitude": "23.2914304",
            "name": "SAJID RAUMA",
            "userRole": "TRAINEE",
            "userId": "f07d7b79-7244-4b9d-92d5-ba1ddcbf4d6f",
            "programId": 27,
            "longitude": "70.7516443"
        },
        {
            "latitude": "23.5734387",
            "name": "Divya Goswami",
            "userRole": "TRAINEE",
            "userId": "35218eb5-0116-4517-a902-d7b02fb15641",
            "programId": 27,
            "longitude": "72.7393338"
        },
        {
            "latitude": "23.5896617",
            "name": "Anand shah",
            "userRole": "TRAINEE",
            "userId": "6e95d2e7-e874-4076-9412-17aeeb8ea5c3",
            "programId": 27,
            "longitude": "74.9851678"
        },
        {
            "latitude": "23.1774792",
            "name": "K K Trivedi",
            "userRole": "TRAINEE",
            "userId": "25b9db1a-07dc-4c73-9ead-a9ab493821fb",
            "programId": 27,
            "longitude": "77.4382237"
        },
        {
            "latitude": "23.6916781",
            "name": "Jigneshkumar pravinbhai patel",
            "userRole": "TRAINEE",
            "userId": "891f8b91-199c-4a29-bb5c-59c067279273",
            "programId": 27,
            "longitude": "72.5474971"
        },
        {
            "latitude": "22.5417462",
            "name": "Harsh Dave",
            "userRole": "TRAINER",
            "userId": "8a499587-62a8-4f73-a20d-23cd31ee58f2",
            "programId": 27,
            "longitude": "72.9703971"
        },
        {
            "latitude": "23.0996657",
            "name": "Tulasi Bhai bhanaji lakhani",
            "userRole": "TRAINEE",
            "userId": "b57afa83-caa4-4505-aaba-517e4a20ad5c",
            "programId": 27,
            "longitude": "69.9125952"
        },
        {
            "latitude": "23.3271098",
            "name": "Pooja Bhavesh sathwara",
            "userRole": "TRAINEE",
            "userId": "14b5f225-43c0-4a97-ac66-52433582208a",
            "programId": 27,
            "longitude": "70.1971151"
        },
        {
            "latitude": "17.1777221",
            "name": "Rashida suparviasor",
            "userRole": "TRAINEE",
            "userId": "83ea2f52-d539-4842-ad29-390a6c1a238e",
            "programId": 27,
            "longitude": "79.6066245"
        },
        {
            "latitude": "17.3224219",
            "name": "Depa Venkatamma ",
            "userRole": "TRAINEE",
            "userId": "97464daa-7d25-48bf-8d76-21978dc26162",
            "programId": 27,
            "longitude": "78.5568862"
        },
        {
            "latitude": "23.4607477",
            "name": "Dharmendrbhai hothi",
            "userRole": "TRAINEE",
            "userId": "07c9dc3e-7f5b-44f2-9e77-db2626100a1f",
            "programId": 27,
            "longitude": "70.41333829999999"
        },
        {
            "latitude": "22.5645175",
            "name": "Shubhoshree Banerjee ",
            "userRole": "TRAINEE",
            "userId": "8c7435c7-ba84-42fa-bbd1-9938eabfdaeb",
            "programId": 27,
            "longitude": "72.928871"
        },
        {
            "latitude": "10.8353468",
            "name": "Rajesh",
            "userRole": "TRAINER",
            "userId": "103893bb-851c-4edb-9ed9-045654677f5d",
            "programId": 27,
            "longitude": "78.6663932"
        },
        {
            "latitude": "22.572646",
            "name": "Hemant Bothra",
            "userRole": "TRAINEE",
            "userId": "2b80d0a9-7767-4f05-9037-719583d95b5c",
            "programId": 27,
            "longitude": "88.36389500000001"
        },
        {
            "latitude": "20.2785813",
            "name": "Bulbuli",
            "userRole": "TRAINEE",
            "userId": "d8e99826-8d1a-4abf-8ecf-2e9afb8dc01a",
            "programId": 27,
            "longitude": "85.856888"
        },
        {
            "latitude": "22.2232052",
            "name": "Om prakash singh",
            "userRole": "TRAINEE",
            "userId": "46c3bc6a-0790-4fd7-b467-1fb0a8a3c1a8",
            "programId": 27,
            "longitude": "85.6319245"
        },
        {
            "latitude": "22.5831112",
            "name": "Hemant",
            "userRole": "TRAINEE",
            "userId": "90ed086b-cf3f-4107-b55d-b893385c105f",
            "programId": 27,
            "longitude": "88.40809639999999"
        },
        {
            "latitude": "12.974002",
            "name": "Aveek",
            "userRole": "TRAINEE",
            "userId": "15834b56-cfac-4d93-ba91-1dcf7785ad19",
            "programId": 27,
            "longitude": 77.61362098826179
        },
        {
            "latitude": "26.8522340000001",
            "name": "Poonam Kulshrestha",
            "userRole": "TRAINEE",
            "userId": "eae4b6b2-f9e0-4738-9d94-c9345173c4cd",
            "programId": 27,
            "longitude": "75.767368"
        },
        {
            "latitude": "23.4899161",
            "name": "JIVANBHAI B AHIR",
            "userRole": "TRAINEE",
            "userId": "efd178d2-ffe6-4fdf-90ac-0df881271fb4",
            "programId": 27,
            "longitude": "71.07997879999999"
        },
        {
            "latitude": "17.2264888",
            "name": " Sunitha Gunda ",
            "userRole": "TRAINEE",
            "userId": "f571026c-dea6-4292-88a3-d71ffa3296d7",
            "programId": 27,
            "longitude": "79.5646617"
        },
        {
            "latitude": "18.4933415",
            "name": "Simran Sumbre",
            "userRole": "TRAINEE",
            "userId": "0fcdf556-7144-4bdf-a6b6-005b50b00f14",
            "programId": 27,
            "longitude": "73.820798"
        },
        {
            "latitude": "23.7023775",
            "name": "Chaudhari twinkle prabhudas ",
            "userRole": "TRAINEE",
            "userId": "9c70412d-ebdd-432a-a17a-6c493577ff7d",
            "programId": 27,
            "longitude": 72.54293056705907
        },
        {
            "latitude": "23.3983553",
            "name": "Prem vaghela",
            "userRole": "TRAINEE",
            "userId": "8ec3b98a-9b06-40e1-9029-f3541fe9a640",
            "programId": 27,
            "longitude": "70.8714528"
        },
        {
            "latitude": "23.4349854",
            "name": "Nilamchaudhari",
            "userRole": "TRAINEE",
            "userId": "86f32410-0d64-4345-9030-6d3533166fce",
            "programId": 27,
            "longitude": 72.65666097866763
        },
        {
            "latitude": "26.8779424",
            "name": "Raj kumar Das",
            "userRole": "TRAINEE",
            "userId": "e51170d0-7e0f-4b6d-b7de-e0aef621b2a5",
            "programId": 27,
            "longitude": "88.80806849999999"
        },
        {
            "latitude": "24.6086473",
            "name": "Shaurya Gupta",
            "userRole": "TRAINEE",
            "userId": "805f8115-7fc6-481c-ae59-9a635ed92038",
            "programId": 27,
            "longitude": "73.6868415"
        },
        {
            "latitude": "23.5968857",
            "name": "RAVAL RUPESHKUMAR dilipbhai",
            "userRole": "TRAINEE",
            "userId": "7d56f878-01cb-4e2d-8001-8d1308260ed2",
            "programId": 27,
            "longitude": 72.96326398541717
        },
        {
            "latitude": "28.5188016",
            "name": "Tanisha chandra",
            "userRole": "TRAINEE",
            "userId": "2854f4ff-cf55-4f19-b9a6-f61947bbd907",
            "programId": 27,
            "longitude": "77.2069306"
        },
        {
            "latitude": "22.8362612",
            "name": "Kirti gor",
            "userRole": "TRAINEE",
            "userId": "399e4133-e3e8-463c-b885-6fb0ca8f2257",
            "programId": 27,
            "longitude": "69.3806552"
        },
        {
            "latitude": "23.7757259",
            "name": "Patel mayur rohitabhai",
            "userRole": "TRAINEE",
            "userId": "bd52bd24-d067-42c5-951d-7fbddef90410",
            "programId": 27,
            "longitude": 72.61671679478502
        },
        {
            "latitude": "23.7757259",
            "name": "Patel Ankushkumar Dahyabhai",
            "userRole": "TRAINEE",
            "userId": "04d9d78f-9bbe-4cc9-85b2-d9381835154c",
            "programId": 27,
            "longitude": 72.61678941134933
        },
        {
            "latitude": "23.8524743",
            "name": "રાજપૂત કિશનસિંહ વિક્રમસિંહ",
            "userRole": "TRAINEE",
            "userId": "94409f12-5d4a-4efa-b825-2dc5a49051ef",
            "programId": 27,
            "longitude": "73.005231"
        },
        {
            "latitude": "23.7023775",
            "name": "Thakor sanjay k",
            "userRole": "TRAINEE",
            "userId": "b2af58c6-41d9-4a76-80c1-203456c861c2",
            "programId": 27,
            "longitude": 72.54300310961966
        },
        {
            "latitude": "23.8872714",
            "name": "Rajdeep Sarkar ",
            "userRole": "TRAINEE",
            "userId": "9028cbac-2720-4a86-a3c4-44b61cc48eb5",
            "programId": 27,
            "longitude": "87.5232638"
        },
        {
            "latitude": "25.3437480000001",
            "name": "Umesh",
            "userRole": "TRAINEE",
            "userId": "7a99e279-a9dd-48ff-9424-a7c478b238b2",
            "programId": 27,
            "longitude": "74.630977"
        },
        {
            "latitude": "23.2523864",
            "name": "Gorabhai thkor ",
            "userRole": "TRAINEE",
            "userId": "97c83f6a-cc4b-4a2d-9749-2d6784f02c21",
            "programId": 27,
            "longitude": "69.3503307"
        },
        {
            "latitude": "20.9108087",
            "name": "Amit Wajpe",
            "userRole": "TRAINEE",
            "userId": "75e35cf1-3a59-4d8a-80de-f594a7b3c086",
            "programId": 27,
            "longitude": "77.7555931"
        },
        {
            "latitude": "17.5392623",
            "name": "Bhargav",
            "userRole": "TRAINER",
            "userId": "8d96ee1c-383e-4573-84c2-5c4c5cb73b82",
            "programId": 27,
            "longitude": "78.43903710000001"
        },
        {
            "latitude": "16.8653811",
            "name": "PAREPALLI DANALAXMI",
            "userRole": "TRAINEE",
            "userId": "1074bfd7-300d-4a92-82b8-d8f2d53d569d",
            "programId": 27,
            "longitude": "79.5518031"
        },
        {
            "latitude": "23.4091517",
            "name": "Narshi Vibha koli",
            "userRole": "TRAINEE",
            "userId": "b791b39b-25d7-4e24-a280-9cd6d4870c90",
            "programId": 27,
            "longitude": "70.8091245"
        },
        {
            "latitude": "22.8362782",
            "name": "Vijaysinh",
            "userRole": "TRAINEE",
            "userId": "fe1b3f7e-975e-4751-9c35-c77fce2da98b",
            "programId": 27,
            "longitude": "69.3806784"
        },
        {
            "latitude": "12.9352094",
            "name": "Hema Prasanna",
            "userRole": "TRAINEE",
            "userId": "4d5ee2bb-8d8c-4e20-8c96-f0a6a0b41f29",
            "programId": 27,
            "longitude": "77.6309651"
        },
        {
            "latitude": "22.8581318",
            "name": "Valji punsi gadhavi",
            "userRole": "TRAINEE",
            "userId": "40a677ce-f0f1-424f-a63d-5cc7a42ce1d2",
            "programId": 27,
            "longitude": "69.4823645"
        },
        {
            "latitude": "24.585445",
            "name": "Girdhari ",
            "userRole": "TRAINEE",
            "userId": "48cb496f-d8ea-4a2d-ad8f-394c45a57566",
            "programId": 27,
            "longitude": "73.712479"
        },
        {
            "latitude": "23.607307",
            "name": "Arvindsinh A",
            "userRole": "TRAINEE",
            "userId": "9ab90b6e-0934-4352-95de-1422b8c24f36",
            "programId": 27,
            "longitude": "72.3810300000001"
        },
        {
            "latitude": "25.3437480000001",
            "name": "Dimpal kumari",
            "userRole": "TRAINEE",
            "userId": "6beec966-3a66-4621-9ff6-6fd5c20e8787",
            "programId": 27,
            "longitude": 74.6311337250517
        },
        {
            "latitude": "23.7015532",
            "name": "Dantani urmila giradhar bhai ",
            "userRole": "TRAINEE",
            "userId": "578969e2-f544-4c86-8856-accfead4ce68",
            "programId": 27,
            "longitude": "72.5395934"
        },
        {
            "latitude": "23.5968857",
            "name": "Chandrapalsinh Rathod",
            "userRole": "TRAINEE",
            "userId": "a592f325-0db2-4c28-a340-17a97748cc7f",
            "programId": 27,
            "longitude": 72.96333694845497
        },
        {
            "latitude": "23.7023775",
            "name": "Patel Asu Shailesh kumar",
            "userRole": "TRAINEE",
            "userId": "cc63685b-cf6c-467d-a178-e1ca40b8c0c8",
            "programId": 27,
            "longitude": 72.54307565218025
        },
        {
            "latitude": "23.7023775",
            "name": "Chaudhri grishma maheshbhai",
            "userRole": "TRAINEE",
            "userId": "2d88780e-c21b-45f2-a2c5-62e6e96784de",
            "programId": 27,
            "longitude": 72.54314819474087
        },
        {
            "latitude": "23.2200508",
            "name": "Nawab lakha",
            "userRole": "TRAINEE",
            "userId": "94dbfffa-754e-4b5e-acf9-ba0ca73b4ea1",
            "programId": 27,
            "longitude": "69.6503979"
        },
        {
            "latitude": "16.5906052",
            "name": "S Saritha",
            "userRole": "TRAINEE",
            "userId": "aafc15ca-107f-4826-90cf-1552e978fb55",
            "programId": 27,
            "longitude": "79.3178605"
        },
        {
            "latitude": "23.838531",
            "name": "Jayeshkumar Premjiji Thakor",
            "userRole": "TRAINEE",
            "userId": "c10b2749-563d-4edd-807d-0f68a8e37231",
            "programId": 27,
            "longitude": "72.5618894"
        },
        {
            "latitude": "25.1990900000001",
            "name": "Saumya ",
            "userRole": "TRAINEE",
            "userId": "ae945fe6-9a36-4989-8485-0684b9deddec",
            "programId": 27,
            "longitude": "85.5193800000001"
        },
        {
            "latitude": "19.8139169",
            "name": "Dhanu deshmukh",
            "userRole": "TRAINEE",
            "userId": "f2942501-3755-4fc6-bb7e-3ba77dc15ff4",
            "programId": 27,
            "longitude": "73.9584332"
        },
        {
            "latitude": "23.2120723",
            "name": "Arvind Parmar",
            "userRole": "TRAINEE",
            "userId": "dac7dcec-ffe3-4d2a-84be-db90e490c32e",
            "programId": 27,
            "longitude": "72.6563777"
        },
        {
            "latitude": "28.6532572",
            "name": "Harry",
            "userRole": "TRAINEE",
            "userId": "6a172e25-60cf-4796-9b03-d93e27e85946",
            "programId": 27,
            "longitude": "77.42897219999999"
        },
        {
            "latitude": "23.8704755",
            "name": "Deviben Rabari",
            "userRole": "TRAINEE",
            "userId": "bf4d2b2b-645e-464d-a4c2-3d3bf682a1d6",
            "programId": 27,
            "longitude": "70.7752031"
        },
        {
            "latitude": "12.9715987",
            "name": "Santosh Rao ",
            "userRole": "TRAINEE",
            "userId": "beda4a08-6aa1-4acf-a210-bcaa529d520f",
            "programId": 27,
            "longitude": 77.59472564858166
        },
        {
            "latitude": "23.0590935",
            "name": "Jadeja narpatsinh",
            "userRole": "TRAINEE",
            "userId": "01c4e8b7-6cb2-4f02-9f80-c4240868e4d1",
            "programId": 27,
            "longitude": "69.8286810000001"
        },
        {
            "latitude": "19.9032574",
            "name": "Rahul vijay chavanke",
            "userRole": "TRAINEE",
            "userId": "8e988141-44a5-4270-aef2-f61dcb0f9683",
            "programId": 27,
            "longitude": "74.1386767"
        },
        {
            "latitude": "18.5335344",
            "name": "Balaji Vharkat",
            "userRole": "TRAINER",
            "userId": "451170d0-83f8-4f99-9adf-db6380aa7c60",
            "programId": 27,
            "longitude": "73.8461891"
        },
        {
            "latitude": "25.8958699",
            "name": "Bhargov Romdung",
            "userRole": "TRAINEE",
            "userId": "c14ea2c7-bd90-4f00-bfe0-2290c07b9219",
            "programId": 27,
            "longitude": "90.61318159999999"
        },
        {
            "latitude": "23.7015532",
            "name": "Patel kamleshbhai shankarbhai ",
            "userRole": "TRAINEE",
            "userId": "d17cf6d3-6234-4440-a34a-dfff233b2fef",
            "programId": 27,
            "longitude": 72.53974573314613
        },
        {
            "latitude": "13.029706",
            "name": "Sharanya",
            "userRole": "TRAINEE",
            "userId": "b98b74e0-478d-4db1-805a-3e8daed1b58f",
            "programId": 27,
            "longitude": "77.693538"
        },
        {
            "latitude": "12.9753386",
            "name": "Jagadish k s",
            "userRole": "TRAINEE",
            "userId": "54904a4f-f5ce-42a4-84fb-19b44b7a6b04",
            "programId": 27,
            "longitude": "77.5877318"
        },
        {
            "latitude": "23.5580562",
            "name": "Ramesh bhikhabhai",
            "userRole": "TRAINEE",
            "userId": "c3f8949d-3600-455d-bbd0-0806a7f16ab6",
            "programId": 27,
            "longitude": "70.9814281"
        },
        {
            "latitude": "13.1154662",
            "name": "Madhavi Purohit",
            "userRole": "TRAINER",
            "userId": "c5d35819-2105-4cef-8c0a-af367a875971",
            "programId": 27,
            "longitude": "77.6069977"
        },
        {
            "latitude": "12.9704211",
            "name": "Ravi Kumar Kasetty",
            "userRole": "TRAINEE",
            "userId": "ce251d08-52fe-4eee-a352-fb41a7503dc4",
            "programId": 27,
            "longitude": "77.6435889"
        },
        {
            "latitude": "12.97004",
            "name": "Arun Aathreya",
            "userRole": "TRAINEE",
            "userId": "4dd30b8f-74fe-4c0a-a7aa-234f0a4cd6ac",
            "programId": 27,
            "longitude": "77.641733"
        },
        {
            "latitude": "12.9715987",
            "name": "Rakhi mathai",
            "userRole": "TRAINEE",
            "userId": "387aedcd-c84e-409b-8067-b1d0e5444975",
            "programId": 27,
            "longitude": 77.59480324314437
        },
        {
            "latitude": "28.4129271",
            "name": "Isha Dash ",
            "userRole": "TRAINEE",
            "userId": "950b76fc-6de2-4102-9af7-1df1b415726b",
            "programId": 27,
            "longitude": "77.0467824"
        },
        {
            "latitude": "28.53148148397778",
            "name": "Abhishek srivastava ",
            "userRole": "TRAINEE",
            "userId": "1b150e3f-f854-4a66-9e73-3e8d856706a1",
            "programId": 27,
            "longitude": "77.29401170283303"
        },
        {
            "latitude": "23.2200502",
            "name": "Nagji bhai",
            "userRole": "TRAINEE",
            "userId": "c0a06ec3-5563-40f7-a987-aea8fe29f08b",
            "programId": 27,
            "longitude": "69.6503971"
        },
        {
            "latitude": "23.237696",
            "name": "Raghuvirsinh Jadeja",
            "userRole": "TRAINEE",
            "userId": "60c6a9c3-268e-4b5c-9939-d0efdcaa04cb",
            "programId": 27,
            "longitude": "69.6653190000001"
        },
        {
            "latitude": "23.2419997",
            "name": "Yogesh Jadeja",
            "userRole": "TRAINER",
            "userId": "971f2670-d929-4a00-a697-f5e19fa95fff",
            "programId": 27,
            "longitude": "69.6669324"
        },
        {
            "latitude": "22.8953953",
            "name": "Rajesh harji sangar",
            "userRole": "TRAINEE",
            "userId": "c3806dc6-ac06-488b-8e75-88e2cae9c1a6",
            "programId": 27,
            "longitude": "69.4774302"
        },
        {
            "latitude": "22.8984669",
            "name": "Sahadevsinh",
            "userRole": "TRAINEE",
            "userId": "64e5cd3d-c6f3-4cfa-9c0f-6116391e6b86",
            "programId": 27,
            "longitude": "69.4652327"
        },
        {
            "latitude": "23.2200511",
            "name": "Nita Khubchandani ",
            "userRole": "TRAINER",
            "userId": "f5c71709-8bfc-4fe9-a633-559aeff445e6",
            "programId": 27,
            "longitude": "69.6503972"
        },
        {
            "latitude": "29.45626",
            "name": "Goutam",
            "userRole": "TRAINEE",
            "userId": "b57134f1-23ce-48b9-bc6a-1e90a88d144f",
            "programId": 27,
            "longitude": "79.6233652"
        },
        {
            "latitude": "24.6099931",
            "name": "Priyanka sarthi",
            "userRole": "TRAINEE",
            "userId": "2adeac0d-3c9c-4429-9f7f-966c8169483d",
            "programId": 27,
            "longitude": "73.6850753"
        },
        {
            "latitude": "23.5609405",
            "name": "Pinu ashish Chaudhari ",
            "userRole": "TRAINEE",
            "userId": "95cc9688-64d4-4109-925d-47172ca52bbd",
            "programId": 27,
            "longitude": "72.7510921"
        },
        {
            "latitude": "23.7023775",
            "name": "Amin bhoomi jayantibhai",
            "userRole": "TRAINEE",
            "userId": "d91fddd8-9b50-4dff-ac4e-1243c9c5b71f",
            "programId": 27,
            "longitude": 72.54322073730145
        },
        {
            "latitude": "12.9715987",
            "name": "Vijit",
            "userRole": "TRAINEE",
            "userId": "675d29ab-9a37-4bb1-9cf2-013077eef6bd",
            "programId": 27,
            "longitude": 77.59488083770707
        },
        {
            "latitude": "20.2533622",
            "name": "Krushna mohan Mishra",
            "userRole": "TRAINEE",
            "userId": "ffdb4a54-b6d8-4e82-8f3e-b9cce836b67e",
            "programId": 27,
            "longitude": "85.8045137"
        },
        {
            "latitude": "22.8552771",
            "name": "Pabu Baha'i gadhavi",
            "userRole": "TRAINEE",
            "userId": "084fbd3e-1924-4484-a80f-f46e23e5c0df",
            "programId": 27,
            "longitude": "69.4875785"
        },
        {
            "latitude": "16.7411756",
            "name": "Basipaka kamalabai",
            "userRole": "TRAINEE",
            "userId": "d654a1c1-ac64-408b-91a1-54d57c883590",
            "programId": 27,
            "longitude": "79.3035298"
        },
        {
            "latitude": "26.1831843",
            "name": "Arvind Agarwal",
            "userRole": "TRAINEE",
            "userId": "aa8b852d-d69b-4341-a0fa-b8926901b4e9",
            "programId": 27,
            "longitude": "72.9431038"
        },
        {
            "latitude": "23.4115449",
            "name": "Pawan Atkari",
            "userRole": "TRAINEE",
            "userId": "441fc2a7-b992-46e0-951f-2a58ae3bdf32",
            "programId": 27,
            "longitude": "70.8137048"
        },
        {
            "latitude": "9.5281071",
            "name": "Johnson Thangaraj ",
            "userRole": "TRAINEE",
            "userId": "f3c005ad-b9e2-4a45-9900-60bdcced16b3",
            "programId": 27,
            "longitude": "78.09723249999999"
        },
        {
            "latitude": "23.6888648",
            "name": "Jigarji Rameshji Chauhan ",
            "userRole": "TRAINEE",
            "userId": "0b54ff54-02a9-4863-a5a2-c7e9ecf75dfb",
            "programId": 27,
            "longitude": "72.7680838"
        },
        {
            "latitude": "23.7015532",
            "name": "Chauhan Arati vishnusinh",
            "userRole": "TRAINEE",
            "userId": "3d5cbfd9-a017-48c1-9ba0-a5e40b0ad188",
            "programId": 27,
            "longitude": 72.53981827273954
        },
        {
            "latitude": "23.018652",
            "name": "Umesh Desai ",
            "userRole": "TRAINEE",
            "userId": "e4fc5fe0-87c6-4077-99be-ed1070f50b56",
            "programId": 27,
            "longitude": "72.5977130000001"
        },
        {
            "latitude": "23.4109223",
            "name": "Dungarbhai Dodiya",
            "userRole": "TRAINEE",
            "userId": "3a089d0b-0cea-42c8-a60a-dd9fb54e25d4",
            "programId": 27,
            "longitude": "70.81384109999999"
        },
        {
            "latitude": "21.3879541",
            "name": "Ramesh Gela",
            "userRole": "TRAINEE",
            "userId": "f8ac18cb-5476-4655-b1b7-6459e8047e4d",
            "programId": 27,
            "longitude": "70.5714859"
        },
        {
            "latitude": "28.6177911",
            "name": "Aditya Kumar",
            "userRole": "TRAINEE",
            "userId": "d2724a98-724b-452f-8abe-d9a4492b3f21",
            "programId": 27,
            "longitude": "77.0464039"
        },
        {
            "latitude": "23.6916781",
            "name": "Thakor gandaji",
            "userRole": "TRAINEE",
            "userId": "cf25e048-3020-4503-a358-dd9be7c7c117",
            "programId": 27,
            "longitude": 72.5476494497439
        },
        {
            "latitude": "23.0649887",
            "name": "Ravubha jadeja",
            "userRole": "TRAINEE",
            "userId": "3834ed59-d53b-4c72-8c36-9b8c146bd2d4",
            "programId": 27,
            "longitude": "69.846742"
        },
        {
            "latitude": "23.409592",
            "name": "Dinesh Oza",
            "userRole": "TRAINER",
            "userId": "c37080b4-1d4c-4a2c-98fd-8c7d6b78e36a",
            "programId": 27,
            "longitude": 70.81363050831176
        },
        {
            "latitude": "16.8652236",
            "name": "R Vani supervisor Icds Damarcherla ",
            "userRole": "TRAINEE",
            "userId": "85238df0-66a9-4a1c-bd4e-05f408801f95",
            "programId": 27,
            "longitude": "79.5777359"
        },
        {
            "latitude": "20.2960587",
            "name": "Rakesh singh",
            "userRole": "TRAINEE",
            "userId": "32d0595c-a70f-45b4-b100-fa671df6566a",
            "programId": 27,
            "longitude": "85.8245398"
        },
        {
            "latitude": "19.8103583",
            "name": "Rhishikesh Dange",
            "userRole": "TRAINEE",
            "userId": "8100d8fe-7ff4-4706-8fa7-144707e7d3ce",
            "programId": 27,
            "longitude": 73.94495468407872
        },
        {
            "latitude": "26.116386",
            "name": "Jay prakash singh",
            "userRole": "TRAINEE",
            "userId": "f15c3598-11e2-4c1f-8cda-d714a5c36867",
            "programId": 27,
            "longitude": "85.36658709999999"
        },
        {
            "latitude": "23.3330172",
            "name": "Dhiraj manji sathawara",
            "userRole": "TRAINEE",
            "userId": "80e5cc2d-48a2-4561-a840-c88ef88bf6ba",
            "programId": 27,
            "longitude": "70.1878132"
        },
        {
            "latitude": "23.0590935",
            "name": "Rajdipsinh jitubha jadeja",
            "userRole": "TRAINEE",
            "userId": "2307df28-88c9-4a61-a906-3a8448379edf",
            "programId": 27,
            "longitude": 69.8288276402302
        },
        {
            "latitude": "23.4802404",
            "name": "Rabari rama soma",
            "userRole": "TRAINEE",
            "userId": "6db52b87-7d08-4b7a-98da-0ab423f15330",
            "programId": 27,
            "longitude": "70.780591"
        },
        {
            "latitude": "18.665944",
            "name": "Jairaj Rajguru",
            "userRole": "TRAINEE",
            "userId": "a9dd0338-e5a1-4617-b94d-06b3b66f93d6",
            "programId": 27,
            "longitude": "73.8014775"
        },
        {
            "latitude": "28.6042202",
            "name": "Ashish",
            "userRole": "TRAINEE",
            "userId": "65d158bb-b5e6-47d1-9fcb-fe4c9584b8de",
            "programId": 27,
            "longitude": "77.4371316"
        },
        {
            "latitude": "23.409592",
            "name": "Balavantbhai",
            "userRole": "TRAINEE",
            "userId": "8015b555-310f-4896-be19-6801c9d16a40",
            "programId": 27,
            "longitude": 70.81370132179357
        },
        {
            "latitude": "23.7080056",
            "name": "Umed Makwana ",
            "userRole": "TRAINEE",
            "userId": "561f2614-a9a4-4fea-8f74-fd79e0a2854a",
            "programId": 27,
            "longitude": "70.6402683"
        },
        {
            "latitude": "25.565063",
            "name": "Bansara Marbaniang",
            "userRole": "TRAINER",
            "userId": "3ae84d02-8c12-4a0e-bd85-d287c286b91d",
            "programId": 27,
            "longitude": "91.90198099999999"
        },
        {
            "latitude": "23.7757259",
            "name": "Pooja Prajapati ",
            "userRole": "TRAINEE",
            "userId": "1e7b369b-6485-42d8-b46f-4d93173de143",
            "programId": 27,
            "longitude": 72.61686202791363
        },
        {
            "latitude": "23.7757259",
            "name": "Prajapati Vishal Baldevbhai",
            "userRole": "TRAINEE",
            "userId": "04d19f6e-f331-4630-a51a-5aa2ea55bdcc",
            "programId": 27,
            "longitude": 72.61693464447794
        },
        {
            "latitude": "24.6992803",
            "name": "Vidyanshu Kumar",
            "userRole": "TRAINEE",
            "userId": "7047e907-28a3-4cb1-9797-30c04e005740",
            "programId": 27,
            "longitude": "84.9748469"
        },
        {
            "latitude": "12.9120883",
            "name": "Kiran Keri",
            "userRole": "TRAINEE",
            "userId": "ab701420-82f6-492b-bc21-e0ac11333177",
            "programId": 27,
            "longitude": "77.5879169"
        },
        {
            "latitude": "26.8812608",
            "name": "Nabamita Guha",
            "userRole": "TRAINEE",
            "userId": "4f4578dd-db88-4474-8d4a-cb9f922009a9",
            "programId": 27,
            "longitude": "88.80271019999999"
        },
        {
            "latitude": "12.9108754",
            "name": "Manisha Shah",
            "userRole": "TRAINER",
            "userId": "534ec60b-0deb-41a6-97f8-2b5477f9c3a3",
            "programId": 27,
            "longitude": "77.68446449999999"
        },
        {
            "latitude": "23.5290188",
            "name": "Arvindbhai",
            "userRole": "TRAINEE",
            "userId": "1945733f-b5d8-4581-bb93-677e47af2892",
            "programId": 27,
            "longitude": "72.90176029999999"
        },
        {
            "latitude": "23.6154181",
            "name": "Kamlesh ",
            "userRole": "TRAINEE",
            "userId": "827d361a-0594-4274-9856-374c4c2d09ca",
            "programId": 27,
            "longitude": "72.4008476"
        },
        {
            "latitude": "25.99548",
            "name": "Nitesh Kumar",
            "userRole": "TRAINEE",
            "userId": "978c03c9-6857-455f-b955-129c9f5d70e9",
            "programId": 27,
            "longitude": "76.3567714"
        },
        {
            "latitude": "23.5968857",
            "name": "Baranda Anupa",
            "userRole": "TRAINEE",
            "userId": "45147e6f-3094-4afd-8fc9-57575771296a",
            "programId": 27,
            "longitude": 72.96340991149277
        },
        {
            "latitude": "23.7006791",
            "name": "Anupama patel",
            "userRole": "TRAINEE",
            "userId": "672fb9f9-8ea1-4cc8-b905-a35e69ce645c",
            "programId": 27,
            "longitude": "72.5406323"
        },
        {
            "latitude": "23.5609405",
            "name": "Dashrathsinh Rathod",
            "userRole": "TRAINEE",
            "userId": "49762a84-722e-4ae9-be16-ba5123bd74fa",
            "programId": 27,
            "longitude": 72.7512448772934
        },
        {
            "latitude": "20.2960587",
            "name": "Biranchi Paikaray ",
            "userRole": "TRAINEE",
            "userId": "c4dd62bb-64be-451a-a6b8-128879daf705",
            "programId": 27,
            "longitude": 85.82472003153357
        },
        {
            "latitude": "14.5511080000001",
            "name": "Gona venkatamma",
            "userRole": "TRAINEE",
            "userId": "24fd8100-05dc-4818-ac5f-ae56daae290f",
            "programId": 27,
            "longitude": "77.111073"
        },
        {
            "latitude": "19.8486075",
            "name": "Sunita Suresh Ghegadmal",
            "userRole": "TRAINEE",
            "userId": "68d36af3-395e-424e-9f89-2bc8dcec7b40",
            "programId": 27,
            "longitude": "73.9245925"
        },
        {
            "latitude": "23.5881482",
            "name": "PARMAR mahipa ",
            "userRole": "TRAINEE",
            "userId": "e07661b3-b906-4829-aa72-c5c2d4b6cff5",
            "programId": 27,
            "longitude": "72.95343849999999"
        },
        {
            "latitude": "20.3093759",
            "name": "Ajay Satish Mahatme ",
            "userRole": "TRAINER",
            "userId": "623772f6-e951-4704-ad07-d8e1b852bee3",
            "programId": 27,
            "longitude": "74.7817795"
        },
        {
            "latitude": "22.8363420855183",
            "name": "Ramesh gor",
            "userRole": "TRAINEE",
            "userId": "e91cf5ba-cf27-4a89-8cec-dc7423a1fac5",
            "programId": 27,
            "longitude": "69.4190530559504"
        },
        {
            "latitude": "23.7063359",
            "name": "Vasim Matadar",
            "userRole": "TRAINEE",
            "userId": "b5796159-916b-4366-8cda-b3bc91f214ec",
            "programId": 27,
            "longitude": "72.54360659999999"
        },
        {
            "latitude": "23.7757259",
            "name": "Rinkal manubhai patel",
            "userRole": "TRAINEE",
            "userId": "f64f98b3-8680-4e4f-8978-a94781c6fb94",
            "programId": 27,
            "longitude": 72.61700726104222
        },
        {
            "latitude": "23.5881482",
            "name": "Parmar pinakin",
            "userRole": "TRAINEE",
            "userId": "8a6f88f1-1dd9-48c3-8e9c-7c2ccc1096d9",
            "programId": 27,
            "longitude": 72.95359170222083
        },
        {
            "latitude": "18.4949373",
            "name": "Uma",
            "userRole": "TRAINEE",
            "userId": "95a04b38-85ea-4d1a-a65f-cbcd05be181e",
            "programId": 27,
            "longitude": "73.8149136"
        },
        {
            "latitude": "17.0549548",
            "name": "Nakarekanti suneetha",
            "userRole": "TRAINEE",
            "userId": "2c4e0071-bcce-448d-b363-6dcb75f84c57",
            "programId": 27,
            "longitude": "79.279334"
        },
        {
            "latitude": "23.2240119",
            "name": "Sazina",
            "userRole": "TRAINER",
            "userId": "249f141b-3fd0-4d6b-8fdb-c68de7aca819",
            "programId": 27,
            "longitude": "69.6506869"
        },
        {
            "latitude": "22.4843962",
            "name": "Anupriya Banerjee",
            "userRole": "TRAINER",
            "userId": "7819afc7-9754-4b53-976c-722417249f0f",
            "programId": 27,
            "longitude": "88.34014239999999"
        },
        {
            "latitude": "23.9451456",
            "name": "Debarati Mondal",
            "userRole": "TRAINEE",
            "userId": "7108b369-0740-47e3-a6c6-ff551de5b1a7",
            "programId": 27,
            "longitude": "87.31403770000001"
        },
        {
            "latitude": "22.8370766",
            "name": "Lalji japare",
            "userRole": "TRAINEE",
            "userId": "1e094070-9b95-4034-92b4-559a6aff57fc",
            "programId": 27,
            "longitude": "69.4218009"
        },
        {
            "latitude": "26.8737195",
            "name": "Arpita Das PRASARI",
            "userRole": "TRAINEE",
            "userId": "4084a65c-8c7b-4f94-bf3f-cb5c6f9d7947",
            "programId": 27,
            "longitude": "88.80498949999999"
        },
        {
            "latitude": "26.1186106",
            "name": "Sunil Kumar Pandey",
            "userRole": "TRAINEE",
            "userId": "eabded96-d1c0-4ec9-a932-4b57b466a34c",
            "programId": 27,
            "longitude": "85.3703771"
        },
        {
            "latitude": "12.9121026",
            "name": "Sudeep",
            "userRole": "TRAINEE",
            "userId": "8443fea0-a160-4b2e-be83-604f9184622f",
            "programId": 27,
            "longitude": "77.5870105"
        },
        {
            "latitude": "27.7044756",
            "name": "Shakti soni",
            "userRole": "TRAINEE",
            "userId": "b9c083ae-1a2d-41ec-ace2-2459410042a9",
            "programId": 27,
            "longitude": "74.4642861"
        },
        {
            "latitude": "23.2200289",
            "name": "Kanika Pokhariya",
            "userRole": "TRAINEE",
            "userId": "da44a0db-c91c-4437-8604-8bd05e2703dc",
            "programId": 27,
            "longitude": "69.6503628"
        },
        {
            "latitude": "23.3241872",
            "name": "Dinesh tarsi ",
            "userRole": "TRAINEE",
            "userId": "fd95ee30-3ab4-4c79-a54d-225162900383",
            "programId": 27,
            "longitude": "70.7822635"
        },
        {
            "latitude": "23.5081588",
            "name": "Vashram desai",
            "userRole": "TRAINEE",
            "userId": "8534ca90-db07-4871-9011-4d41455f192c",
            "programId": 27,
            "longitude": "70.9861706"
        },
        {
            "latitude": "23.3455397",
            "name": "Navghan bharvad",
            "userRole": "TRAINEE",
            "userId": "e84e38c5-38bc-47e9-b5f1-a6c47d653c1e",
            "programId": 27,
            "longitude": "70.7703703"
        },
        {
            "latitude": "25.2730980000001",
            "name": "Pintu Kumar Gupta",
            "userRole": "TRAINEE",
            "userId": "04512cf0-6175-4c6f-a757-a792934cc3ae",
            "programId": 27,
            "longitude": "81.37476"
        },
        {
            "latitude": "22.844887",
            "name": "Shakti",
            "userRole": "TRAINEE",
            "userId": "bf0950c4-678f-41ec-a679-f64208fd1dd2",
            "programId": 27,
            "longitude": "74.2538650000001"
        },
        {
            "latitude": "23.239121",
            "name": "Gaurav Parmar",
            "userRole": "TRAINEE",
            "userId": "0ab69b7d-9e8e-4127-aa10-ed2172d2ce5e",
            "programId": 27,
            "longitude": "69.661069"
        },
        {
            "latitude": "18.493298",
            "name": "Rucha Deshmukh",
            "userRole": "TRAINER",
            "userId": "9c993b60-1289-4c9c-a4cc-5b34e3a4c330",
            "programId": 27,
            "longitude": "73.820836"
        },
        {
            "latitude": "23.8012221",
            "name": "Chaudhary Puriben kanjibhai",
            "userRole": "TRAINEE",
            "userId": "77f89c51-9282-4033-9a94-daebbc0b515f",
            "programId": 27,
            "longitude": "72.59367929999999"
        },
        {
            "latitude": "17.3453312",
            "name": "lavanya",
            "userRole": "TRAINEE",
            "userId": "48567399-eb17-4b8f-89b9-98d3f82e745a",
            "programId": 27,
            "longitude": "78.5551488"
        },
        {
            "latitude": "13.5395928",
            "name": "Snenesh",
            "userRole": "TRAINEE",
            "userId": "e97fd0ba-3afc-46e6-a51a-d46194af9fe2",
            "programId": 27,
            "longitude": "78.51638940000001"
        },
        {
            "latitude": "20.2960587",
            "name": "Hrushikesh Mahapatra ",
            "userRole": "TRAINEE",
            "userId": "9f743472-2191-48cd-81c8-40eee1d96e31",
            "programId": 27,
            "longitude": 85.82480585607338
        },
        {
            "latitude": "23.337201068906",
            "name": "Dhirenbhai",
            "userRole": "TRAINEE",
            "userId": "d02b6311-6074-4fa1-898d-d9e60793c1a5",
            "programId": 27,
            "longitude": "70.189165510336"
        },
        {
            "latitude": "29.4802452",
            "name": "Deepa",
            "userRole": "TRAINEE",
            "userId": "e6afff30-727b-4d6a-9a0f-a21ce2ac628c",
            "programId": 27,
            "longitude": "79.6287287"
        },
        {
            "latitude": "23.8342951",
            "name": "Thakor mukeshkumar",
            "userRole": "TRAINEE",
            "userId": "3da1ae03-ee8f-4739-b245-d477b387772d",
            "programId": 27,
            "longitude": "72.58211550000001"
        },
        {
            "latitude": "23.7757259",
            "name": "Ratansinh jagusinh chauhan",
            "userRole": "TRAINEE",
            "userId": "01f6c773-65a6-4875-a9e1-3c649ba6c333",
            "programId": 27,
            "longitude": 72.61707987760651
        },
        {
            "latitude": "23.7023775",
            "name": "Gads b patel",
            "userRole": "TRAINEE",
            "userId": "84b658c9-cb9b-4984-8f29-7186c1fa81bb",
            "programId": 27,
            "longitude": 72.54263386798621
        },
        {
            "latitude": "22.9873856",
            "name": "Gazala ",
            "userRole": "TRAINEE",
            "userId": "ead391a6-2c6e-4389-9bf3-f949dcc4b97d",
            "programId": 27,
            "longitude": "72.513657"
        },
        {
            "latitude": "18.539059",
            "name": "Manoj Bhagwat",
            "userRole": "TRAINEE",
            "userId": "d3ad7842-a5a6-462c-8a5d-b693bfd2cf89",
            "programId": 27,
            "longitude": "73.872828"
        },
        {
            "latitude": "23.4544995",
            "name": "Rathod  Gajendrasinh javansinh ",
            "userRole": "TRAINEE",
            "userId": "518c58b9-1081-495d-8c06-520a0f127641",
            "programId": 27,
            "longitude": "73.0213414"
        },
        {
            "latitude": "23.7757259",
            "name": "Jagrutiben Thakor",
            "userRole": "TRAINEE",
            "userId": "e7ca78b7-9578-4795-ae25-a860c3976649",
            "programId": 27,
            "longitude": 72.61715249417082
        },
        {
            "latitude": "23.7757259",
            "name": "Ashvinkumar Prajapati ",
            "userRole": "TRAINEE",
            "userId": "84eef6b9-3acb-40f3-a8b3-f9ad7a2fb257",
            "programId": 27,
            "longitude": 72.61722511073512
        },
        {
            "latitude": "20.048039",
            "name": "Kaniphnath Anna Madhawai",
            "userRole": "TRAINEE",
            "userId": "e96e2ffe-dcae-4be3-b2b9-6066b9969f8b",
            "programId": 27,
            "longitude": "74.422136"
        },
        {
            "latitude": "23.8416740000001",
            "name": "Bhatta Ram",
            "userRole": "TRAINER",
            "userId": "a342759f-5fbb-42dd-804b-f8875e53362f",
            "programId": 27,
            "longitude": "73.7146470000001"
        },
        {
            "latitude": "23.2599333",
            "name": "AR Ahirwal",
            "userRole": "TRAINEE",
            "userId": "f1708eec-aa7b-484e-8e5d-9e066c140cec",
            "programId": 27,
            "longitude": "77.412615"
        },
        {
            "latitude": "23.5580562",
            "name": "DHARAMSHI GOHIL",
            "userRole": "TRAINEE",
            "userId": "1da12f92-cab3-4f8b-b8c7-4c9baf5a32f9",
            "programId": 27,
            "longitude": 70.98157716099901
        },
        {
            "latitude": "17.070690692155",
            "name": "Miryala  padma",
            "userRole": "TRAINEE",
            "userId": "c8656f2b-d154-4578-935a-bd44c29e35d0",
            "programId": 27,
            "longitude": "78.9190747665309"
        },
        {
            "latitude": "23.1245763",
            "name": "Dhanjirathod",
            "userRole": "TRAINEE",
            "userId": "aa0791ae-e282-4470-9c63-a4e4c898bf3e",
            "programId": 27,
            "longitude": "69.9916784"
        },
        {
            "latitude": "23.6129875",
            "name": "Patel kiran kumar bardevbhai",
            "userRole": "TRAINEE",
            "userId": "985b18b2-845a-4900-8463-1a8832f9b8a3",
            "programId": 27,
            "longitude": "72.40389929999999"
        },
        {
            "latitude": "21.3598492",
            "name": "sandip",
            "userRole": "TRAINEE",
            "userId": "d71b934c-81c3-47d1-8a1b-bfa821e53873",
            "programId": 27,
            "longitude": "74.2566308"
        },
        {
            "latitude": "26.8816342",
            "name": "Binita Chowdhury",
            "userRole": "TRAINEE",
            "userId": "24116eb6-0d95-472a-befc-206e7e1f787c",
            "programId": 27,
            "longitude": 88.79867887683403
        },
        {
            "latitude": "23.3329231",
            "name": "Rajeshbgai mohanvgai sathvara",
            "userRole": "TRAINEE",
            "userId": "e6a08c80-8a53-4490-a3b4-bd407bfb5558",
            "programId": 27,
            "longitude": "70.1952547"
        },
        {
            "latitude": "23.6865916",
            "name": "Patel vipul",
            "userRole": "TRAINEE",
            "userId": "0f021e0f-b508-4fbf-91a2-e256ffde7de3",
            "programId": 27,
            "longitude": "72.5914616"
        },
        {
            "latitude": "21.3577785",
            "name": "Jitendra Sonawane",
            "userRole": "TRAINEE",
            "userId": "b16b7c59-7de2-41e9-9a24-d63e33c0a825",
            "programId": 27,
            "longitude": "74.2593057"
        },
        {
            "latitude": "21.4668716",
            "name": "Amrtha Kasturi Rangan",
            "userRole": "TRAINER",
            "userId": "f838dac6-0aca-4a3c-a686-f4e012303539",
            "programId": 27,
            "longitude": "83.9811665"
        },
        {
            "latitude": "13.7806309",
            "name": "Naveen L ",
            "userRole": "TRAINEE",
            "userId": "5b560155-18f6-4430-9b9c-e4c45333628e",
            "programId": 27,
            "longitude": "77.7987591"
        },
        {
            "latitude": "23.7006791",
            "name": "Charmi modi",
            "userRole": "TRAINEE",
            "userId": "b93fb22c-4617-4d60-a38e-8718ad7b228f",
            "programId": 27,
            "longitude": 72.54078463532782
        },
        {
            "latitude": "18.185332",
            "name": "Nilay Wankhade",
            "userRole": "TRAINEE",
            "userId": "ffb16e31-3fd8-4fc3-94e1-63c6b68c451e",
            "programId": 27,
            "longitude": "76.0419642"
        },
        {
            "latitude": "13.0300911",
            "name": "Balakrishnan ",
            "userRole": "TRAINEE",
            "userId": "e88b61f8-77ab-4db5-8925-dd7986aedef2",
            "programId": 27,
            "longitude": "77.51825199999999"
        },
        {
            "latitude": "26.8830603",
            "name": "Twinkle Mukherjee ",
            "userRole": "TRAINEE",
            "userId": "32669155-14ca-462e-b187-55304716c91a",
            "programId": 27,
            "longitude": "88.8046865"
        },
        {
            "latitude": "23.3271098",
            "name": "Sonal sachin sathawara",
            "userRole": "TRAINEE",
            "userId": "16e92e92-b29d-433b-8cff-121f6a631419",
            "programId": 27,
            "longitude": 70.19726251394171
        },
        {
            "latitude": "16.760729",
            "name": "Parimi Rajini",
            "userRole": "TRAINEE",
            "userId": "c1f975e4-9644-4b1f-afc4-b7dc270bf848",
            "programId": 27,
            "longitude": "79.369436"
        },
        {
            "latitude": "23.1103099",
            "name": "Tushar Jethwa",
            "userRole": "TRAINEE",
            "userId": "743c12ee-242e-452d-88b0-9744cfd55eaa",
            "programId": 27,
            "longitude": "70.0016573"
        },
        {
            "latitude": "23.7006791",
            "name": "Kadiya vidhi kirtibhai",
            "userRole": "TRAINEE",
            "userId": "88826799-8409-4769-bbfc-4885256b9ec8",
            "programId": 27,
            "longitude": 72.54085717596013
        },
        {
            "latitude": "23.9345721808112",
            "name": "Sarad nakar",
            "userRole": "TRAINEE",
            "userId": "c55bd79b-042e-46bf-9e18-f4dd8e383e5d",
            "programId": 27,
            "longitude": "69.8143552113209"
        },
        {
            "latitude": "22.5418779",
            "name": "Sunderrajan",
            "userRole": "TRAINER",
            "userId": "452450c8-d384-4c61-83f8-4faf11a6d8ef",
            "programId": 27,
            "longitude": "72.970447"
        },
        {
            "latitude": "22.5645175",
            "name": "Vahidsaiyad",
            "userRole": "TRAINER",
            "userId": "2cbe0329-07a4-481a-bf7a-22b814a464e5",
            "programId": 27,
            "longitude": 72.92902415062909
        },
        {
            "latitude": "26.8910377",
            "name": "Rashika Pullam Chetti",
            "userRole": "TRAINEE",
            "userId": "0c28fe58-1af0-44b9-8d42-d25138965205",
            "programId": 27,
            "longitude": "75.8031961"
        },
        {
            "latitude": "23.409592",
            "name": "Bharat Dodiya",
            "userRole": "TRAINEE",
            "userId": "4f3f5e8e-de1b-411a-9454-9038cca34335",
            "programId": 27,
            "longitude": 70.81377213527537
        },
        {
            "latitude": "19.8103583",
            "name": "Akash Chine",
            "userRole": "TRAINEE",
            "userId": "94c0c622-52e4-4601-8589-a1abcf398672",
            "programId": 27,
            "longitude": 73.94502862887813
        },
        {
            "latitude": "16.7602252",
            "name": "Ramachandra Bhat",
            "userRole": "TRAINEE",
            "userId": "305c306d-64cc-45eb-b51c-6bcb69c00291",
            "programId": 27,
            "longitude": "77.1328617"
        },
        {
            "latitude": "12.974002",
            "name": "Suchee",
            "userRole": "TRAINER",
            "userId": "a6241a20-9982-4041-a67d-7e2a2e43f6b9",
            "programId": 27,
            "longitude": 77.61369860171979
        },
        {
            "latitude": "23.0150214",
            "name": "Saurav",
            "userRole": "TRAINER",
            "userId": "e6f9c8f7-019e-4d38-b18a-5acf5900c008",
            "programId": 27,
            "longitude": "72.5182858"
        },
        {
            "latitude": "26.917858",
            "name": "Navneet",
            "userRole": "TRAINER",
            "userId": "192c494b-39ec-4cdc-b0b0-e4322d336e69",
            "programId": 27,
            "longitude": "75.801292"
        },
        {
            "latitude": "23.6256476",
            "name": "Arvind  Singh",
            "userRole": "TRAINEE",
            "userId": "22920d14-8b63-47ab-aebc-5e2b69deacb3",
            "programId": 27,
            "longitude": "74.5184968"
        },
        {
            "latitude": "12.9715987",
            "name": "Priya Sankar",
            "userRole": "TRAINEE",
            "userId": "59921a3a-49f8-482e-9cab-dd64ad59a839",
            "programId": 27,
            "longitude": 77.59495843226978
        },
        {
            "latitude": "22.9680485000001",
            "name": "Kerai harish",
            "userRole": "TRAINEE",
            "userId": "945619e0-0d9c-435a-ad20-c4d392b263bd",
            "programId": 27,
            "longitude": "69.4487735"
        },
        {
            "latitude": "23.7834060000001",
            "name": "Hardi Sukhadiya",
            "userRole": "TRAINEE",
            "userId": "ffe886cb-1150-4c72-8899-fe2c0927826d",
            "programId": 27,
            "longitude": "72.634913"
        },
        {
            "latitude": "23.2200321",
            "name": "Karathiya Girishkumar Rameshbhai",
            "userRole": "TRAINER",
            "userId": "4e526a75-c8d4-436b-8245-b7f7dd485186",
            "programId": 27,
            "longitude": "69.6503381"
        },
        {
            "latitude": "22.8970853",
            "name": "Amrut garva",
            "userRole": "TRAINER",
            "userId": "fb03a265-7824-49ee-a49d-fbe0c9e82564",
            "programId": 27,
            "longitude": "69.4708192"
        },
        {
            "latitude": "23.0931159998129",
            "name": "Chandan Chawla",
            "userRole": "TRAINEE",
            "userId": "4c9c2ac4-1b68-49f8-811d-2f555eda7f69",
            "programId": 27,
            "longitude": "69.8279691856143"
        },
        {
            "latitude": "22.8833385",
            "name": "Bharat Gadhavi",
            "userRole": "TRAINEE",
            "userId": "6df4face-5699-4fa1-bd64-0c565ee7440d",
            "programId": 27,
            "longitude": "69.5512612"
        },
        {
            "latitude": "23.7023775",
            "name": "Patel SURESHBHAI SADUTHALA ",
            "userRole": "TRAINEE",
            "userId": "d848a85a-5f98-4df7-81a3-118fa56f1780",
            "programId": 27,
            "longitude": 72.54264112224226
        },
        {
            "latitude": "23.382517",
            "name": "Hamir Rana Bhai koli",
            "userRole": "TRAINEE",
            "userId": "5264b284-4789-4883-81a1-0f7233e0c848",
            "programId": 27,
            "longitude": "70.7246806"
        },
        {
            "latitude": "17.1100184",
            "name": "Dharavath sunitha",
            "userRole": "TRAINEE",
            "userId": "9731fb01-dfad-4a22-b1f3-b9185873d4ae",
            "programId": 27,
            "longitude": "79.6342446"
        },
        {
            "latitude": "23.8421556",
            "name": "Narendra Chavda ",
            "userRole": "TRAINEE",
            "userId": "78fb6721-9eb2-4099-98f7-75340a08c883",
            "programId": 27,
            "longitude": "70.6677785"
        },
        {
            "latitude": "25.5701051",
            "name": "ParulSk",
            "userRole": "TRAINER",
            "userId": "fe2cf7fe-c2da-42ff-bc9b-0bd9169b1f37",
            "programId": 27,
            "longitude": "91.90410279999999"
        },
        {
            "latitude": "12.974002",
            "name": "Partik Kumar",
            "userRole": "TRAINEE",
            "userId": "c4f487d3-f35f-4aaa-9e17-e8486db834c2",
            "programId": 27,
            "longitude": 77.6137762151778
        },
        {
            "latitude": "28.5515740000001",
            "name": "Bishwadeep Ghose",
            "userRole": "TRAINER",
            "userId": "a7756c59-d51a-4cff-af34-75b0403432f1",
            "programId": 27,
            "longitude": "77.269148"
        },
        {
            "latitude": "12.9753386",
            "name": "Pooja",
            "userRole": "TRAINEE",
            "userId": "9b6cd454-3a3c-49bf-b0d7-e7d797f03585",
            "programId": 27,
            "longitude": 77.58789473423677
        },
        {
            "latitude": "12.9749838",
            "name": "Vinayak ",
            "userRole": "TRAINEE",
            "userId": "fe52cdee-ac18-4e1b-adbf-746fcbca24a1",
            "programId": 27,
            "longitude": "77.578145"
        },
        {
            "latitude": "12.9777236",
            "name": "Adarsh ",
            "userRole": "TRAINEE",
            "userId": "04c32002-e577-43b2-901f-aca2a6004b1e",
            "programId": 27,
            "longitude": "77.5507999"
        },
        {
            "latitude": "25.6363680000001",
            "name": "Vivek Sharan",
            "userRole": "TRAINEE",
            "userId": "b2104b7e-50fb-4455-9a78-7e764a56ea9e",
            "programId": 27,
            "longitude": "85.0391540000001"
        },
        {
            "latitude": "26.1186521",
            "name": "Pritesh Kumar Lal",
            "userRole": "TRAINEE",
            "userId": "2c7ec408-8187-4669-96c5-6aa13608a15d",
            "programId": 27,
            "longitude": "85.3705043"
        },
        {
            "latitude": "25.6072438",
            "name": "Safdar Ali",
            "userRole": "TRAINEE",
            "userId": "140e088a-dfb0-4385-8522-3ae556c510c0",
            "programId": 27,
            "longitude": "85.082642"
        },
        {
            "latitude": "13.4352510000001",
            "name": "Prasanna kumar ",
            "userRole": "TRAINEE",
            "userId": "6b9b9f7d-8411-44e8-ac46-817c80c15bc9",
            "programId": 27,
            "longitude": "77.731252"
        },
        {
            "latitude": "16.2501559168102",
            "name": "Shankaragoud C",
            "userRole": "TRAINEE",
            "userId": "07e64d90-36df-4114-bc07-d68fc28b716a",
            "programId": 27,
            "longitude": "77.3514448452671"
        },
        {
            "latitude": "15.351525",
            "name": "Vasudeva murthy",
            "userRole": "TRAINEE",
            "userId": "7050b19c-3082-434e-bef5-6e41056549af",
            "programId": 27,
            "longitude": "76.1540560000001"
        },
        {
            "latitude": "13.3378762",
            "name": "Soma Kumara K  DC",
            "userRole": "TRAINEE",
            "userId": "1952f99c-0f23-41fb-9093-9005c5449d98",
            "programId": 27,
            "longitude": "77.117325"
        },
        {
            "latitude": "14.2250932",
            "name": "BYLAPPA",
            "userRole": "TRAINEE",
            "userId": "46032e3f-cc37-4289-aaa5-5c3af326130f",
            "programId": 27,
            "longitude": "76.3980464"
        },
        {
            "latitude": "12.5218157",
            "name": "BHEEMANAIKA B R",
            "userRole": "TRAINEE",
            "userId": "6a23ff23-5a53-4947-a47f-8ea3a8f374c1",
            "programId": 27,
            "longitude": "76.89514880000002"
        },
        {
            "latitude": "13.394900990412",
            "name": "Suresh D R",
            "userRole": "TRAINER",
            "userId": "d2a695e3-5d1c-49ba-adab-671dab6d81fa",
            "programId": 27,
            "longitude": "77.1002568889448"
        },
        {
            "latitude": "18.5109092",
            "name": "Akash Gaikwad",
            "userRole": null,
            "userId": "4290b0eb-020e-4137-8e54-f8de292d1782",
            "programId": 27,
            "longitude": "73.7903645"
        },
        {
            "latitude": "12.974002",
            "name": "Manu",
            "userRole": "TRAINER",
            "userId": "67f6ffd9-0d75-4c92-8909-7c0f78daf8b7",
            "programId": 27,
            "longitude": 77.6138538286358
        },
        {
            "latitude": "12.9361721",
            "name": "Roopa Anand Rao",
            "userRole": null,
            "userId": "f10b75e8-8d1c-4591-be30-7ba8a9e0de33",
            "programId": 27,
            "longitude": "77.5878605"
        },
        {
            "latitude": "12.9745016",
            "name": "sowmya lg",
            "userRole": "TRAINEE",
            "userId": "fe428fb5-8dbb-463f-af7a-c37857745007",
            "programId": 27,
            "longitude": "77.577996"
        },
        {
            "latitude": "13.400853",
            "name": "Lokesh C",
            "userRole": "TRAINER",
            "userId": "e931ea86-989b-4188-aa8b-8052253f14ce",
            "programId": 27,
            "longitude": "78.053478"
        },
        {
            "latitude": "13.341262",
            "name": "Gangamani.HR, tumkur District coordinator ,FES.",
            "userRole": "TRAINEE",
            "userId": "00191047-642a-4678-aff6-22162d924cf5",
            "programId": 27,
            "longitude": "77.1020520000001"
        },
        {
            "latitude": "12.9749756",
            "name": "Venugopal",
            "userRole": "TRAINEE",
            "userId": "e1fe48c5-1f99-4815-9720-ef0f32dbcaab",
            "programId": 27,
            "longitude": "77.5781368"
        },
        {
            "latitude": "26.3857105",
            "name": "Atikur",
            "userRole": null,
            "userId": "919b177f-2a3d-4883-8060-149bf84012b4",
            "programId": 27,
            "longitude": "91.431389"
        },
        {
            "latitude": "26.151840209960938",
            "name": "Jenifer Yasmin ",
            "userRole": "TRAINEE",
            "userId": "91b3214a-3f2c-4424-8112-1b73d35e8e74",
            "programId": 27,
            "longitude": "91.79286737971188"
        },
        {
            "latitude": "26.152005",
            "name": "Arnab Bharali",
            "userRole": "TRAINEE",
            "userId": "b8901b46-902f-4142-bec0-09b4d326dc9f",
            "programId": 27,
            "longitude": "91.7984530000001"
        },
        {
            "latitude": "12.9247368",
            "name": "Tejas Mahajan",
            "userRole": "TRAINEE",
            "userId": "74852ff7-d5bb-4ceb-bf41-a7e8b9dede53",
            "programId": 27,
            "longitude": "77.5905686"
        },
        {
            "latitude": "14.2273300000001",
            "name": "Ramesh M District Coordinator",
            "userRole": "TRAINEE",
            "userId": "d7e2fcef-65df-409c-9bb2-5d08080aa9d3",
            "programId": 27,
            "longitude": "76.4027100000001"
        },
        {
            "latitude": "12.96774",
            "name": "Gurudutt Ramachandra ",
            "userRole": "TRAINER",
            "userId": "0c193e5f-d189-464b-82cf-443317306d87",
            "programId": 27,
            "longitude": "77.588913"
        },
        {
            "latitude": "12.8743821",
            "name": "RK kalluri",
            "userRole": "TRAINER",
            "userId": "f7e93313-2909-4493-9a53-fadfd033201b",
            "programId": 27,
            "longitude": "77.5905451"
        },
        {
            "latitude": "26.4387671",
            "name": "Sumanjita Barman",
            "userRole": "TRAINER",
            "userId": "7dd8cae2-8102-44ca-b042-6a1d51b97504",
            "programId": 27,
            "longitude": "91.4362206"
        },
        {
            "latitude": "26.1518904",
            "name": "Arnav Kr Baruah",
            "userRole": "TRAINER",
            "userId": "bf9b2448-f718-4224-96d4-06bdb59034a3",
            "programId": 27,
            "longitude": "91.793075"
        },
        {
            "latitude": "12.9715987",
            "name": "Kiran Kumar Sen",
            "userRole": "TRAINER",
            "userId": "5a9679fe-6c56-4e22-aa0a-14adb9703410",
            "programId": 27,
            "longitude": 77.59503602683247
        },
        {
            "latitude": "26.1227192",
            "name": "Sarmila Kakoti",
            "userRole": "TRAINER",
            "userId": "f5bda8c8-9b5d-4f02-aefc-e2ecf01d710c",
            "programId": 27,
            "longitude": "91.7643362"
        },
        {
            "latitude": "26.1362946",
            "name": "Sujata Gautam",
            "userRole": "TRAINER",
            "userId": "b7031ba5-8d50-43d4-82db-b63e173db13c",
            "programId": 27,
            "longitude": "91.802353"
        },
        {
            "latitude": "27.8205223625558",
            "name": "Hemanta pegu",
            "userRole": "TRAINEE",
            "userId": "281eb629-9078-40cf-a6f3-57ee6d3322ea",
            "programId": 27,
            "longitude": "95.2144120519937"
        },
        {
            "latitude": "19.0330488",
            "name": "Neha Pawar",
            "userRole": "TRAINEE",
            "userId": "42740f34-6ea7-41e2-be0e-7ea2a846b001",
            "programId": 27,
            "longitude": "73.0296625"
        },
        {
            "latitude": "26.1210801",
            "name": "Rajdeep",
            "userRole": "TRAINEE",
            "userId": "13fc614f-fced-4a20-88d4-13da63c5f701",
            "programId": 27,
            "longitude": "91.8130694"
        },
        {
            "latitude": "26.1210678",
            "name": "WKA",
            "userRole": "TRAINEE",
            "userId": "b9d075fd-535e-4931-a9ec-07211bfe43e2",
            "programId": 27,
            "longitude": "91.8130789"
        },
        {
            "latitude": "26.0204836",
            "name": "Dulal Adhikary ",
            "userRole": "TRAINEE",
            "userId": "6bf65efc-f264-43c2-a0be-860d7a2c1ba4",
            "programId": 27,
            "longitude": "89.994388"
        },
        {
            "latitude": "26.020454",
            "name": "Parmeswar Ray",
            "userRole": "TRAINEE",
            "userId": "9fc9a526-f8f1-41a0-9315-90ab1034c015",
            "programId": 27,
            "longitude": "89.9944097"
        },
        {
            "latitude": "26.0204738",
            "name": "Nilmoni Sutradhar",
            "userRole": "TRAINEE",
            "userId": "29165e83-2d36-44a0-abeb-29671c4c1ed9",
            "programId": 27,
            "longitude": "89.9944162"
        },
        {
            "latitude": "26.0241990000001",
            "name": "Sofior Rahman ",
            "userRole": "TRAINEE",
            "userId": "9ed66187-2ab1-4850-a46e-6b643d6152c3",
            "programId": 27,
            "longitude": "89.9754380000001"
        },
        {
            "latitude": "26.0204986",
            "name": "Md Amir Hossain",
            "userRole": "TRAINEE",
            "userId": "1893c0a9-e5b6-4d84-81e9-fdccb4099495",
            "programId": 27,
            "longitude": "89.9944233"
        },
        {
            "latitude": "26.0204752",
            "name": "Arun Chandra nath ",
            "userRole": "TRAINEE",
            "userId": "110ef2a1-b7ef-4492-837a-610b52065d14",
            "programId": 27,
            "longitude": "89.9943987"
        },
        {
            "latitude": "26.0204611",
            "name": "Kushal Nath",
            "userRole": "TRAINEE",
            "userId": "ca50e610-790e-4e87-88ae-de258d6f0984",
            "programId": 27,
            "longitude": "89.9944077"
        },
        {
            "latitude": "26.0204613",
            "name": "Mandira Prodhani",
            "userRole": "TRAINEE",
            "userId": "940bad7d-ebab-40dd-8b9c-d03951723ce1",
            "programId": 27,
            "longitude": "89.9944109"
        },
        {
            "latitude": "26.0204587",
            "name": "Sanjit kumar das",
            "userRole": "TRAINEE",
            "userId": "d7ff3cb7-f173-4971-a433-471f0aab2add",
            "programId": 27,
            "longitude": "89.9944102"
        },
        {
            "latitude": "27.5046451",
            "name": "Sankor Jyoti Boruah",
            "userRole": "TRAINEE",
            "userId": "b6ef39c8-f38b-40df-9383-69e0d5eeeb19",
            "programId": 27,
            "longitude": "95.3307278"
        },
        {
            "latitude": "27.5046638",
            "name": "Heman Hazarika",
            "userRole": "TRAINEE",
            "userId": "c3efa9f7-b055-40bf-a1fd-6abfb6dd248f",
            "programId": 27,
            "longitude": "95.3308418"
        },
        {
            "latitude": "27.5046538",
            "name": "Robin kurmi",
            "userRole": "TRAINEE",
            "userId": "42549872-9eea-474a-a594-621890e222e7",
            "programId": 27,
            "longitude": "95.3307853"
        },
        {
            "latitude": "27.487336",
            "name": "Simanta Changmai",
            "userRole": "TRAINEE",
            "userId": "e1ccedd7-f57c-459b-9821-edb85017a0a4",
            "programId": 27,
            "longitude": "95.360486"
        },
        {
            "latitude": "27.5046453",
            "name": "BIPUL UPADHYAY ",
            "userRole": "TRAINEE",
            "userId": "0b55fce6-afbd-4528-84fd-33bf04fda5d6",
            "programId": 27,
            "longitude": "95.3307282"
        },
        {
            "latitude": "27.5046589",
            "name": "Bhugil Neog",
            "userRole": "TRAINEE",
            "userId": "8d3b7c58-4a3d-400a-bff6-b8dc2bffa831",
            "programId": 27,
            "longitude": "95.3308179"
        },
        {
            "latitude": "27.5038240000001",
            "name": "DIGANTA BHAJANI",
            "userRole": "TRAINEE",
            "userId": "a8b89bfc-e3f3-466a-9336-9b1bff1b3ec0",
            "programId": 27,
            "longitude": "95.3322450000001"
        },
        {
            "latitude": "27.5046449",
            "name": "Rupjyoti Gogoi",
            "userRole": "TRAINEE",
            "userId": "00a4275f-77c9-4549-a1aa-03f02627ce8e",
            "programId": 27,
            "longitude": "95.330769"
        },
        {
            "latitude": "27.5046565",
            "name": "Sagar Panika",
            "userRole": "TRAINEE",
            "userId": "18ae1d53-99c6-4838-a0b5-22c2b83b2b35",
            "programId": 27,
            "longitude": "95.3308069"
        },
        {
            "latitude": "27.5046446",
            "name": "Kamal Borah ",
            "userRole": "TRAINEE",
            "userId": "43cbd0c4-ab9e-4f97-b943-d29673283717",
            "programId": 27,
            "longitude": "95.3307263"
        },
        {
            "latitude": "26.6861733",
            "name": "Asraf Ali ",
            "userRole": "TRAINEE",
            "userId": "0fa6f373-8a59-43ce-86b4-46d2a5924bb8",
            "programId": 27,
            "longitude": "92.1877183"
        },
        {
            "latitude": "27.0317938",
            "name": "Susanta ",
            "userRole": "TRAINEE",
            "userId": "01cf5f0d-2ddc-4cff-9168-78a5ef6a0390",
            "programId": 27,
            "longitude": "95.0078122"
        },
        {
            "latitude": "24.8317389",
            "name": "DELETED BY USER",
            "userRole": "TRAINEE",
            "userId": "9484cabc-789c-490a-abc0-50cc74dbd4b7",
            "programId": 27,
            "longitude": "92.801075"
        },
        {
            "latitude": "24.7769114",
            "name": "Krishna Kanta Das",
            "userRole": "TRAINEE",
            "userId": "3dde8fd3-646c-429d-9a62-388274eb125a",
            "programId": 27,
            "longitude": "92.7932262"
        },
        {
            "latitude": "24.7769192",
            "name": "SATYAJIT DAS",
            "userRole": "TRAINEE",
            "userId": "704248ea-bdd5-4300-a69e-54264c035207",
            "programId": 27,
            "longitude": "92.7931864"
        },
        {
            "latitude": "24.7769169",
            "name": "L Darendrojit Singha",
            "userRole": "TRAINEE",
            "userId": "2d5d097f-c694-4188-bf09-1859357b1515",
            "programId": 27,
            "longitude": "92.7932158"
        },
        {
            "latitude": "24.7769023",
            "name": "Dipankar Ghosh ",
            "userRole": "TRAINEE",
            "userId": "3028ee3f-39b2-4f0f-89db-7672e037ef63",
            "programId": 27,
            "longitude": "92.7932117"
        },
        {
            "latitude": "24.7769115",
            "name": "Manna Kishore Das",
            "userRole": "TRAINEE",
            "userId": "4033ed96-355e-45b1-91ce-9f1fd8532b47",
            "programId": 27,
            "longitude": "92.7932282"
        },
        {
            "latitude": "27.4682632",
            "name": "Niranjan Borah ",
            "userRole": "TRAINEE",
            "userId": "e5e059eb-5d83-4fe2-93d7-04ef49a1b047",
            "programId": 27,
            "longitude": "94.9120847"
        },
        {
            "latitude": "25.7213199",
            "name": "Golap Hussain",
            "userRole": "TRAINEE",
            "userId": "78ed1d0e-5194-4376-8b3f-f69c1391d3a3",
            "programId": 27,
            "longitude": "89.8991823"
        },
        {
            "latitude": "25.7213202",
            "name": "Rezaul Alom ",
            "userRole": "TRAINEE",
            "userId": "6ddf90c1-9c9b-4ca1-a369-45db7c480042",
            "programId": 27,
            "longitude": "89.8991862"
        },
        {
            "latitude": "25.7213202",
            "name": "Debjit Ghosh",
            "userRole": "TRAINEE",
            "userId": "59652d89-4354-40d8-be71-8b5d15ca4d7d",
            "programId": 27,
            "longitude": 89.89937498829102
        },
        {
            "latitude": "26.4994999",
            "name": "Chhandami Rongpipi",
            "userRole": "TRAINEE",
            "userId": "eaea65ad-ae30-4949-9fcb-2933a042e796",
            "programId": 27,
            "longitude": "89.8948853"
        },
        {
            "latitude": "24.7769151",
            "name": "Abdur Rahman Mazumder ",
            "userRole": "TRAINEE",
            "userId": "b7934ad1-ac0f-4bc5-836e-46944134194a",
            "programId": 27,
            "longitude": "92.7932165"
        },
        {
            "latitude": "26.1211487",
            "name": "D Wary",
            "userRole": "TRAINEE",
            "userId": "68d802d6-0ce4-45cb-86d2-2ca69cf9d2a0",
            "programId": 27,
            "longitude": "91.8131132"
        },
        {
            "latitude": "25.7213222",
            "name": "NUR ALOM HOQUE",
            "userRole": "TRAINEE",
            "userId": "8784c9b7-1298-4c5b-aaad-082095062d5c",
            "programId": 27,
            "longitude": "89.8991847"
        },
        {
            "latitude": "25.7213205",
            "name": "Ariful Hoque Khandokar",
            "userRole": "TRAINEE",
            "userId": "ed78b801-9229-4182-b609-470f1ca00fa6",
            "programId": 27,
            "longitude": "89.8991836"
        },
        {
            "latitude": "25.7213208",
            "name": "Abdul Awal Khan",
            "userRole": "TRAINEE",
            "userId": "67544f1b-f881-498b-9bd5-b4044eee7e76",
            "programId": 27,
            "longitude": "89.8991824"
        },
        {
            "latitude": "26.07587",
            "name": "Nazrul Islam ",
            "userRole": "TRAINEE",
            "userId": "533b6923-355b-4a2d-b88a-802edf884268",
            "programId": 27,
            "longitude": "89.9624284"
        },
        {
            "latitude": "26.1140504",
            "name": "Jolly Changmai Kalita ",
            "userRole": "TRAINEE",
            "userId": "a7db7bf8-9af9-440d-aab9-ced9b308ead4",
            "programId": 27,
            "longitude": "91.7235627"
        },
        {
            "latitude": "26.1210688",
            "name": "BHRIGURAJ KASHYAP ",
            "userRole": "TRAINEE",
            "userId": "5b3ecf7c-0070-489b-be1d-995dc1829f0a",
            "programId": 27,
            "longitude": "91.8131055"
        },
        {
            "latitude": "26.1211531",
            "name": "Dr. Mukut Kalita",
            "userRole": "TRAINEE",
            "userId": "62c01ea6-4c0b-4564-9a72-d7b0c608554d",
            "programId": 27,
            "longitude": "91.8130949"
        },
        {
            "latitude": "26.1210981",
            "name": "Janardon Buragohain",
            "userRole": "TRAINEE",
            "userId": "5cdc1a8a-cb15-43f3-b601-8e5709a7332d",
            "programId": 27,
            "longitude": "91.8130865"
        },
        {
            "latitude": "27.5635342274404",
            "name": "Dr. Dima Rani Borgohain",
            "userRole": "TRAINEE",
            "userId": "1d26bd1f-53f9-4a4f-872d-75baa4d966a6",
            "programId": 27,
            "longitude": "94.5704661774647"
        },
        {
            "latitude": "26.1211468",
            "name": "Bikash Jyoti Hazarika ",
            "userRole": "TRAINEE",
            "userId": "5362a9d7-d18a-4cd0-9094-b499e05d2c13",
            "programId": 27,
            "longitude": "91.8130867"
        },
        {
            "latitude": "26.1409977",
            "name": "Dr. Arunabha Bhattacharjee ",
            "userRole": "TRAINEE",
            "userId": "39577de1-cc39-4e94-9663-8b1479d62ee3",
            "programId": 27,
            "longitude": "91.7867623"
        },
        {
            "latitude": "26.1808600000001",
            "name": "Trinayan Das",
            "userRole": "TRAINEE",
            "userId": "909970da-ceda-452d-a554-3253549b7c34",
            "programId": 27,
            "longitude": "91.7508540000001"
        },
        {
            "latitude": "26.1210637",
            "name": "KSHIROD MOHAN Boruah",
            "userRole": "TRAINEE",
            "userId": "33f2bc0a-4818-4cfd-b1a7-dc96eca03a20",
            "programId": 27,
            "longitude": "91.8130935"
        },
        {
            "latitude": "26.1211996",
            "name": "Debajit Chakrabarty",
            "userRole": "TRAINEE",
            "userId": "1a587d8f-ab0f-41a4-8734-4eb5299de541",
            "programId": 27,
            "longitude": "91.8131072"
        },
        {
            "latitude": "26.1472433",
            "name": "RANA RANJAN NATH ",
            "userRole": "TRAINEE",
            "userId": "008bf78d-3278-40df-ac0b-f61aaad7df00",
            "programId": 27,
            "longitude": "91.7919567"
        },
        {
            "latitude": "26.1408585",
            "name": "Subir Adhikari",
            "userRole": "TRAINEE",
            "userId": "220027ad-44ca-4456-bce1-b7bc320100ca",
            "programId": 27,
            "longitude": "91.786478"
        },
        {
            "latitude": "26.1409385",
            "name": "Saikat dey",
            "userRole": "TRAINEE",
            "userId": "984a0a77-1089-4069-b1b7-31d6653cf39f",
            "programId": 27,
            "longitude": "91.7865843"
        },
        {
            "latitude": "26.7354621",
            "name": "Arnab Saikia",
            "userRole": "TRAINEE",
            "userId": "47dfaaee-20e7-470d-a578-be5efdb6fcbc",
            "programId": 27,
            "longitude": "93.1393747"
        },
        {
            "latitude": "26.1210849",
            "name": "Trisiddha Nath ",
            "userRole": "TRAINEE",
            "userId": "65b9d878-fa4a-4ffd-bb97-f830475c6b7b",
            "programId": 27,
            "longitude": "91.81306"
        },
        {
            "latitude": "26.0478941",
            "name": "Arnab Jyoti Arya",
            "userRole": "TRAINEE",
            "userId": "f33cb0b3-7f13-48d7-b67d-bf42767fcf32",
            "programId": 27,
            "longitude": "91.3853652"
        },
        {
            "latitude": "26.1210991",
            "name": "Shahinur Islam",
            "userRole": "TRAINEE",
            "userId": "2fd74557-b0c1-4d60-8f7d-47eabf8e6f62",
            "programId": 27,
            "longitude": "91.8131051"
        },
        {
            "latitude": "24.8671631",
            "name": "Shashabindu Dey",
            "userRole": "TRAINEE",
            "userId": "0fd2789c-d2c1-48de-8e48-0e3b9d3c234c",
            "programId": 27,
            "longitude": "92.3481947"
        },
        {
            "latitude": "26.1210617",
            "name": "Kiyekashyap Pathak",
            "userRole": "TRAINEE",
            "userId": "35914b29-c7ff-41c7-9b2c-28c4128d66fa",
            "programId": 27,
            "longitude": "91.8130927"
        },
        {
            "latitude": "26.1210896",
            "name": "Bhaskaryya Deka",
            "userRole": "TRAINEE",
            "userId": "814ff81f-1482-41fa-b34a-97ae266fb085",
            "programId": 27,
            "longitude": "91.8130783"
        },
        {
            "latitude": "26.1210511",
            "name": "Roton Ramdey ",
            "userRole": "TRAINEE",
            "userId": "7c236bf0-be29-4c30-8651-f8e88fb6dde9",
            "programId": 27,
            "longitude": "91.8130785"
        },
        {
            "latitude": "26.1409424",
            "name": "Akhya Raj Muchahary",
            "userRole": "TRAINEE",
            "userId": "a6a3144d-7891-4ea9-ba34-72737cbfdb8c",
            "programId": 27,
            "longitude": "91.7866832"
        },
        {
            "latitude": "27.4705089",
            "name": "Pradip kumar Gogoi",
            "userRole": "TRAINEE",
            "userId": "e87a3059-a5a4-48ae-aef2-601658bd0e18",
            "programId": 27,
            "longitude": "94.5601795"
        },
        {
            "latitude": "27.470467",
            "name": "Dulu Saikia",
            "userRole": "TRAINEE",
            "userId": "91b483c7-6378-4355-be57-3a69f6e10ba5",
            "programId": 27,
            "longitude": "94.5604092"
        },
        {
            "latitude": "27.470114",
            "name": "Amit Yadav",
            "userRole": "TRAINEE",
            "userId": "e91e616e-06fa-4748-a1ab-75a15a4cf3c2",
            "programId": 27,
            "longitude": "94.5596891"
        },
        {
            "latitude": "27.472631",
            "name": "Riju moni Saikia",
            "userRole": "TRAINEE",
            "userId": "6bbbe571-d71f-4e95-88b7-0483cd3f0555",
            "programId": 27,
            "longitude": "94.558951"
        },